
$GPRMC,104948.000,A,4041.5440,N,07358.7180,W,0.13,359.42,050216,,,A*74,47.80,15.20,0.18

$GPRMC,105003.000,A,4041.5541,N,07358.7457,W,0.34,352.23,050216,,,A*75,47.80,15.20,0.19

$GPRMC,105004.000,A,4041.5540,N,07358.7454,W,0.47,353.09,050216,,,A*7D,47.80,15.20,0.22

$GPRMC,105005.000,A,4041.5546,N,07358.7451,W,0.53,354.43,050216,,,A*73,47.80,15.20,0.17

$GPRMC,105006.000,A,4041.5552,N,07358.7444,W,0.53,4.24,050216,,,A*76,47.90,15.20,0.17

$GPRMC,105007.000,A,4041.5546,N,07358.7434,W,0.42,8.30,050216,,,A*7C,47.90,15.20,0.17

$GPRMC,105007.215,A,4041.5542,N,07358.7427,W,0.31,10.30,050216,,,A*41,47.90,15.20,0.18

$GPRMC,105009.000,A,4041.5539,N,07358.7419,W,0.19,3.92,050216,,,A*78,48.00,15.20,0.20

$GPRMC,105010.000,A,4041.5539,N,07358.7415,W,0.15,355.78,050216,,,A*74,47.80,15.20,0.18

$GPRMC,105011.000,A,4041.5538,N,07358.7412,W,0.12,333.36,050216,,,A*7E,47.80,15.20,0.17

$GPRMC,105013.000,A,4041.5539,N,07358.7404,W,0.09,9.33,050216,,,A*7F,47.80,15.20,0.17

$GPRMC,105013.219,A,4041.5539,N,07358.7401,W,0.07,28.55,050216,,,A*4D,47.80,15.20,0.17

$GPRMC,105015.000,A,4041.5537,N,07358.7394,W,0.10,112.93,050216,,,A*70,47.40,15.20,0.17

$GPRMC,105016.000,A,4041.5534,N,07358.7387,W,0.19,124.71,050216,,,A*72,47.80,15.20,0.18

$GPRMC,105017.000,A,4041.5532,N,07358.7380,W,0.23,120.59,050216,,,A*75,47.80,15.20,0.30

$GPRMC,105018.000,A,4041.5527,N,07358.7369,W,0.36,122.41,050216,,,A*76,47.70,15.20,0.19

$GPRMC,105019.000,A,4041.5522,N,07358.7357,W,0.49,119.16,050216,,,A*7D,47.70,15.20,0.16

$GPRMC,105019.207,A,4041.5518,N,07358.7348,W,0.56,117.51,050216,,,A*7C,47.70,15.20,0.16

$GPRMC,105021.000,A,4041.5517,N,07358.7334,W,0.62,105.95,050216,,,A*7A,47.60,15.20,0.20

$GPRMC,105022.000,A,4041.5517,N,07358.7323,W,0.69,97.45,050216,,,A*43,47.50,15.20,0.17

$GPRMC,105023.000,A,4041.5519,N,07358.7311,W,0.77,89.37,050216,,,A*48,47.50,15.20,0.16

$GPRMC,105024.000,A,4041.5520,N,07358.7287,W,0.96,87.48,050216,,,A*42,47.40,15.20,0.16

$GPRMC,105025.207,A,4041.5516,N,07358.7253,W,1.28,89.66,050216,,,A*4C,47.40,15.20,0.18

$GPRMC,105027.000,A,4041.5520,N,07358.7234,W,1.32,86.65,050216,,,A*48,47.40,15.20,0.19

$GPRMC,105028.000,A,4041.5524,N,07358.7221,W,1.40,83.43,050216,,,A*43,47.50,15.20,0.17

$GPRMC,105029.000,A,4041.5526,N,07358.7213,W,1.43,81.38,050216,,,A*4C,47.50,15.20,0.18

$GPRMC,105030.000,A,4041.5524,N,07358.7210,W,1.39,82.04,050216,,,A*44,47.70,15.20,0.17

$GPRMC,105031.000,A,4041.5524,N,07358.7204,W,1.35,81.91,050216,,,A*43,47.70,15.20,0.18

$GPRMC,105031.215,A,4041.5525,N,07358.7202,W,1.33,81.46,050216,,,A*4E,47.70,15.20,0.19

$GPRMC,105033.000,A,4041.5523,N,07358.7193,W,1.29,84.00,050216,,,A*4B,47.80,15.20,0.46

$GPRMC,105034.000,A,4041.5524,N,07358.7188,W,1.22,83.96,050216,,,A*42,47.70,15.20,0.51

$GPRMC,105035.000,A,4041.5524,N,07358.7185,W,1.15,84.82,050216,,,A*48,47.70,15.20,0.47

$GPRMC,105036.000,A,4041.5525,N,07358.7181,W,1.11,84.33,050216,,,A*40,47.70,15.20,0.17

$GPRMC,105037.000,A,4041.5525,N,07358.7180,W,1.06,84.52,050216,,,A*41,47.80,15.20,0.17

$GPRMC,105037.215,A,4041.5526,N,07358.7180,W,1.01,82.88,050216,,,A*42,47.80,15.20,0.18

$GPRMC,105039.000,A,4041.5527,N,07358.7178,W,0.91,82.03,050216,,,A*47,47.90,15.20,0.20

$GPRMC,105040.000,A,4041.5527,N,07358.7175,W,0.87,81.72,050216,,,A*46,47.90,15.20,0.17

$GPRMC,105041.000,A,4041.5526,N,07358.7173,W,0.83,82.74,050216,,,A*41,48.00,15.20,0.19

$GPRMC,105042.000,A,4041.5525,N,07358.7172,W,0.79,83.85,050216,,,A*4A,48.00,15.20,0.18

$GPRMC,105043.000,A,4041.5526,N,07358.7169,W,0.77,83.11,050216,,,A*41,47.90,15.20,0.17

$GPRMC,105043.208,A,4041.5526,N,07358.7167,W,0.77,82.64,050216,,,A*46,47.90,15.20,0.16

$GPRMC,105045.000,A,4041.5522,N,07358.7160,W,0.74,89.37,050216,,,A*47,47.90,15.20,0.17

$GPRMC,105046.000,A,4041.5518,N,07358.7156,W,0.74,94.51,050216,,,A*44,47.90,15.20,0.19

$GPRMC,105047.000,A,4041.5515,N,07358.7151,W,0.75,97.29,050216,,,A*42,47.90,15.20,0.17

$GPRMC,105048.000,A,4041.5512,N,07358.7148,W,0.72,101.08,050216,,,A*78,47.90,15.20,0.17

$GPRMC,105049.000,A,4041.5512,N,07358.7148,W,0.67,97.71,050216,,,A*4D,48.00,15.20,0.19

$GPRMC,105049.209,A,4041.5512,N,07358.7148,W,0.65,94.15,050216,,,A*45,48.00,15.20,0.19

$GPRMC,105051.000,A,4041.5515,N,07358.7147,W,0.59,83.43,050216,,,A*45,47.90,15.20,0.17

$GPRMC,105052.000,A,4041.5517,N,07358.7145,W,0.59,78.90,050216,,,A*4C,47.90,15.20,0.19

$GPRMC,105053.000,A,4041.5519,N,07358.7144,W,0.57,73.54,050216,,,A*4F,47.80,15.20,0.17

$GPRMC,105054.000,A,4041.5525,N,07358.7147,W,0.54,56.27,050216,,,A*44,47.80,15.20,0.17

$GPRMC,105055.000,A,4041.5529,N,07358.7150,W,0.50,47.05,050216,,,A*4B,47.80,15.20,0.17

$GPRMC,105055.208,A,4041.5531,N,07358.7154,W,0.47,42.09,050216,,,A*43,47.80,15.20,0.17

$GPRMC,105057.000,A,4041.5536,N,07358.7150,W,0.53,41.22,050216,,,A*47,47.80,15.20,0.17

$GPRMC,105058.000,A,4041.5538,N,07358.7145,W,0.58,45.47,050216,,,A*4E,47.80,15.20,0.17

$GPRMC,105059.000,A,4041.5543,N,07358.7141,W,0.64,45.55,050216,,,A*4B,47.90,15.20,0.18

$GPRMC,105100.000,A,4041.5549,N,07358.7136,W,0.73,45.59,050216,,,A*46,47.90,15.20,0.16

$GPRMC,105101.000,A,4041.5552,N,07358.7131,W,0.78,48.06,050216,,,A*46,48.00,15.20,0.30

$GPRMC,105101.219,A,4041.5554,N,07358.7126,W,0.84,51.52,050216,,,A*46,48.00,15.20,0.31

$GPRMC,105103.000,A,4041.5561,N,07358.7111,W,0.98,55.14,050216,,,A*47,48.10,15.20,0.18

$GPRMC,105104.000,A,4041.5566,N,07358.7097,W,1.12,58.51,050216,,,A*47,48.10,15.20,0.19

$GPRMC,105105.000,A,4041.5570,N,07358.7085,W,1.20,62.06,050216,,,A*48,48.10,15.20,0.22

$GPRMC,105106.000,A,4041.5574,N,07358.7072,W,1.29,64.98,050216,,,A*4F,48.10,15.20,0.19

$GPRMC,105107.211,A,4041.5574,N,07358.7050,W,1.48,72.34,050216,,,A*4A,47.90,15.20,0.17

$GPRMC,105109.000,A,4041.5578,N,07358.7032,W,1.61,74.84,050216,,,A*48,47.90,15.20,0.17

$GPRMC,105110.000,A,4041.5577,N,07358.7018,W,1.72,78.62,050216,,,A*41,47.90,15.20,0.18

$GPRMC,105111.000,A,4041.5577,N,07358.7003,W,1.85,80.85,050216,,,A*4C,48.00,15.20,0.17

$GPRMC,105112.000,A,4041.5580,N,07358.6992,W,1.94,80.01,050216,,,A*4B,48.00,15.20,0.18

$GPRMC,105113.000,A,4041.5581,N,07358.6983,W,1.96,80.73,050216,,,A*4C,48.20,15.20,0.17

$GPRMC,105113.210,A,4041.5582,N,07358.6978,W,2.03,81.36,050216,,,A*47,48.20,15.20,0.17

$GPRMC,105115.000,A,4041.5586,N,07358.6963,W,2.04,81.38,050216,,,A*45,48.10,15.20,0.18

$GPRMC,105116.000,A,4041.5589,N,07358.6955,W,2.05,81.19,050216,,,A*4E,48.10,15.20,0.18

$GPRMC,105117.000,A,4041.5596,N,07358.6944,W,2.10,78.59,050216,,,A*47,48.00,15.20,0.18

$GPRMC,105118.000,A,4041.5600,N,07358.6944,W,2.04,76.83,050216,,,A*48,48.00,15.20,0.17

$GPRMC,105119.000,A,4041.5603,N,07358.6944,W,2.00,74.81,050216,,,A*4E,48.00,15.20,0.18

$GPRMC,105119.211,A,4041.5608,N,07358.6951,W,1.96,71.36,050216,,,A*46,48.00,15.20,0.19

$GPRMC,105121.000,A,4041.5613,N,07358.6951,W,1.86,68.51,050216,,,A*4D,48.00,15.20,0.19

$GPRMC,105122.000,A,4041.5620,N,07358.6962,W,1.70,63.07,050216,,,A*4F,48.00,15.20,0.16

$GPRMC,105123.000,A,4041.5625,N,07358.6974,W,1.54,57.44,050216,,,A*4A,48.10,15.20,0.19

$GPRMC,105124.000,A,4041.5629,N,07358.6987,W,1.35,52.36,050216,,,A*4A,48.10,15.20,0.18

$GPRMC,105125.000,A,4041.5629,N,07358.6994,W,1.20,50.03,050216,,,A*49,48.10,15.20,0.17

$GPRMC,105125.215,A,4041.5628,N,07358.7003,W,1.06,47.00,050216,,,A*49,48.10,15.20,0.17

$GPRMC,105127.000,A,4041.5628,N,07358.7009,W,0.88,44.42,050216,,,A*45,48.20,15.20,0.19

$GPRMC,105128.000,A,4041.5625,N,07358.7019,W,0.66,41.50,050216,,,A*40,48.20,15.20,0.17

$GPRMC,105129.000,A,4041.5621,N,07358.7029,W,0.47,35.87,050216,,,A*4C,48.20,15.20,0.19

$GPRMC,105130.000,A,4041.5617,N,07358.7037,W,0.28,21.36,050216,,,A*48,48.20,15.20,0.18

$GPRMC,105131.000,A,4041.5613,N,07358.7046,W,0.17,338.25,050216,,,A*7E,48.20,15.20,0.17

$GPRMC,105131.210,A,4041.5608,N,07358.7054,W,0.21,282.02,050216,,,A*74,48.20,15.20,0.17

$GPRMC,105133.000,A,4041.5608,N,07358.7056,W,0.26,272.51,050216,,,A*79,48.20,15.20,0.18

$GPRMC,105134.000,A,4041.5608,N,07358.7057,W,0.36,270.33,050216,,,A*78,48.20,15.20,0.20

$GPRMC,105135.000,A,4041.5608,N,07358.7058,W,0.45,267.41,050216,,,A*71,48.10,15.20,0.20

$GPRMC,105136.000,A,4041.5608,N,07358.7060,W,0.55,259.37,050216,,,A*74,48.10,15.20,0.17

$GPRMC,105137.000,A,4041.5607,N,07358.7062,W,0.67,253.46,050216,,,A*75,48.20,15.20,0.17

$GPRMC,105137.211,A,4041.5605,N,07358.7071,W,0.83,251.02,050216,,,A*7F,48.20,15.20,0.18

$GPRMC,105154.000,A,4041.5550,N,07358.7167,W,0.55,245.68,050216,,,A*7F,48.00,15.20,0.18

$GPRMC,105155.207,A,4041.5541,N,07358.7194,W,1.02,248.09,050216,,,A*7E,48.00,15.20,0.18

$GPRMC,105157.000,A,4041.5529,N,07358.7227,W,1.27,246.25,050216,,,A*7B,48.00,15.20,0.18

$GPRMC,105158.000,A,4041.5523,N,07358.7246,W,1.34,245.92,050216,,,A*74,48.00,15.20,0.18

$GPRMC,105159.000,A,4041.5526,N,07358.7239,W,1.17,246.76,050216,,,A*70,48.00,15.20,0.19

$GPRMC,105200.000,A,4041.5531,N,07358.7238,W,1.04,250.87,050216,,,A*73,48.00,15.20,0.19

$GPRMC,105201.210,A,4041.5545,N,07358.7220,W,0.72,258.48,050216,,,A*70,48.00,15.20,0.20

$GPRMC,105203.000,A,4041.5549,N,07358.7215,W,0.60,258.20,050216,,,A*76,48.00,15.20,0.18

$GPRMC,105204.000,A,4041.5559,N,07358.7188,W,0.29,264.68,050216,,,A*79,48.00,15.20,0.17

$GPRMC,105205.000,A,4041.5566,N,07358.7180,W,0.09,327.23,050216,,,A*77,48.00,15.20,0.19

$GPRMC,105206.000,A,4041.5572,N,07358.7172,W,0.21,41.66,050216,,,A*44,48.10,15.20,0.19

$GPRMC,105207.000,A,4041.5577,N,07358.7165,W,0.30,43.66,050216,,,A*44,48.10,15.20,0.19

$GPRMC,105207.209,A,4041.5577,N,07358.7165,W,0.37,42.16,050216,,,A*4E,48.10,15.20,0.19

$GPRMC,105209.000,A,4041.5579,N,07358.7163,W,0.58,25.78,050216,,,A*43,48.10,15.20,0.18

$GPRMC,105210.000,A,4041.5586,N,07358.7162,W,0.65,23.45,050216,,,A*4C,48.10,15.20,0.19

$GPRMC,105211.000,A,4041.5591,N,07358.7163,W,0.63,23.06,050216,,,A*4B,48.10,15.20,0.18

$GPRMC,105212.000,A,4041.5596,N,07358.7165,W,0.64,19.62,050216,,,A*45,48.10,15.20,0.17

$GPRMC,105213.209,A,4041.5606,N,07358.7166,W,0.69,16.07,050216,,,A*47,48.10,15.20,0.17

$GPRMC,105215.000,A,4041.5610,N,07358.7163,W,0.67,19.74,050216,,,A*4D,48.10,15.20,0.18

$GPRMC,105216.000,A,4041.5610,N,07358.7172,W,0.56,12.91,050216,,,A*4C,48.10,15.20,0.18

$GPRMC,105217.000,A,4041.5609,N,07358.7180,W,0.49,5.16,050216,,,A*7F,48.10,15.20,0.17

$GPRMC,105218.000,A,4041.5608,N,07358.7188,W,0.47,350.19,050216,,,A*7B,48.10,15.20,0.18

$GPRMC,105219.000,A,4041.5609,N,07358.7196,W,0.49,342.17,050216,,,A*77,48.10,15.20,0.17

$GPRMC,105219.211,A,4041.5609,N,07358.7196,W,0.51,332.79,050216,,,A*73,48.10,15.20,0.17

$GPRMC,105221.000,A,4041.5611,N,07358.7198,W,0.49,323.16,050216,,,A*7D,48.10,15.20,0.20

$GPRMC,105222.000,A,4041.5613,N,07358.7199,W,0.46,319.99,050216,,,A*7C,48.00,15.20,0.19

$GPRMC,105223.000,A,4041.5613,N,07358.7200,W,0.43,314.97,050216,,,A*78,48.00,15.20,0.18

$GPRMC,105224.000,A,4041.5614,N,07358.7201,W,0.42,307.78,050216,,,A*7B,48.10,15.20,0.19

$GPRMC,105225.000,A,4041.5615,N,07358.7202,W,0.45,302.24,050216,,,A*73,48.10,15.20,0.18

$GPRMC,105225.216,A,4041.5615,N,07358.7203,W,0.47,299.44,050216,,,A*70,48.10,15.20,0.18

$GPRMC,105227.000,A,4041.5616,N,07358.7206,W,0.50,303.98,050216,,,A*74,48.10,15.20,0.16

$GPRMC,105228.000,A,4041.5617,N,07358.7207,W,0.48,302.84,050216,,,A*7E,48.10,15.20,0.18

$GPRMC,105229.000,A,4041.5618,N,07358.7209,W,0.47,300.64,050216,,,A*7D,48.10,15.20,0.16

$GPRMC,105230.000,A,4041.5618,N,07358.7210,W,0.44,299.85,050216,,,A*70,48.00,15.20,0.17

$GPRMC,105231.000,A,4041.5619,N,07358.7212,W,0.39,297.01,050216,,,A*7A,48.00,15.20,0.17

$GPRMC,105231.209,A,4041.5619,N,07358.7212,W,0.35,293.95,050216,,,A*74,48.00,15.20,0.16

$GPRMC,105233.000,A,4041.5620,N,07358.7214,W,0.39,288.62,050216,,,A*7F,47.80,15.20,0.17

$GPRMC,105234.000,A,4041.5620,N,07358.7216,W,0.55,292.64,050216,,,A*7D,47.80,15.20,0.18

$GPRMC,105235.000,A,4041.5621,N,07358.7218,W,0.77,291.51,050216,,,A*76,47.80,15.20,0.19

$GPRMC,105236.000,A,4041.5621,N,07358.7235,W,0.91,286.58,050216,,,A*7D,47.90,15.20,0.18

$GPRMC,105237.000,A,4041.5621,N,07358.7252,W,1.03,283.08,050216,,,A*77,47.90,15.20,0.18

$GPRMC,105237.211,A,4041.5619,N,07358.7264,W,1.11,279.62,050216,,,A*71,47.90,15.20,0.18

$GPRMC,105239.000,A,4041.5615,N,07358.7277,W,1.12,274.95,050216,,,A*75,48.00,15.20,0.17

$GPRMC,105240.000,A,4041.5612,N,07358.7283,W,1.11,272.01,050216,,,A*7F,47.90,15.20,0.17

$GPRMC,105241.000,A,4041.5613,N,07358.7297,W,1.21,271.93,050216,,,A*71,47.90,15.20,0.17

$GPRMC,105242.000,A,4041.5612,N,07358.7310,W,1.30,270.85,050216,,,A*7B,47.90,15.20,0.18

$GPRMC,105243.000,A,4041.5607,N,07358.7320,W,1.37,266.55,050216,,,A*70,47.90,15.20,0.19

$GPRMC,105243.211,A,4041.5602,N,07358.7324,W,1.39,263.35,050216,,,A*7E,47.90,15.20,0.19

$GPRMC,105245.000,A,4041.5597,N,07358.7334,W,1.40,259.77,050216,,,A*75,47.80,15.20,0.18

$GPRMC,105246.000,A,4041.5589,N,07358.7338,W,1.38,254.18,050216,,,A*7E,47.80,15.20,0.18

$GPRMC,105247.000,A,4041.5581,N,07358.7343,W,1.39,250.13,050216,,,A*75,47.80,15.20,0.17

$GPRMC,105249.000,A,4041.5572,N,07358.7356,W,1.40,247.43,050216,,,A*7E,47.80,15.20,0.17

$GPRMC,105249.216,A,4041.5570,N,07358.7358,W,1.39,245.84,050216,,,A*70,47.80,15.20,0.17

$GPRMC,105251.000,A,4041.5563,N,07358.7368,W,1.43,243.98,050216,,,A*7B,47.70,15.20,0.17

$GPRMC,105252.000,A,4041.5558,N,07358.7373,W,1.44,241.76,050216,,,A*7F$GPRMC,105253.000,A,4041.5550,N,07358.7377,W,1.,47.70,15.20,0.16

$GPRMC,105254.000,A,4041.5542,N,07358.7378,W,1.44,233.27,050216,,,A*78,47.50,15.20,0.17

$GPRMC,105255.000,A,4041.5531,N,07358.7375,W,1.44,227.03,050216,,,A*73,47.50,15.20,0.18

$GPRMC,105255.210,A,4041.5524,N,07358.7369,W,1.46,221.80,050216,,,A*76,47.50,15.20,0.18

$GPRMC,105257.000,A,4041.5514,N,07358.7367,W,1.42,217.81,050216,,,A*7A,47.80,15.20,0.18

$GPRMC,105258.000,A,4041.5501,N,07358.7376,W,1.53,215.38,050216,,,A*71,47.80,15.20,0.21

$GPRMC,105259.000,A,4041.5489,N,07358.7387,W,1.62,215.32,050216,,,A*77,47.80,15.20,0.23

$GPRMC,105300.000,A,4041.5478,N,07358.7390,W,1.70,212.96,050216,,,A*78,47.80,15.20,0.20

$GPRMC,105301.000,A,4041.5471,N,07358.7390,W,1.69,211.24,050216,,,A*72,47.80,15.20,0.20

$GPRMC,105301.209,A,4041.5467,N,07358.7386,W,1.66,208.85,050216,,,A*75,47.80,15.20,0.19

$GPRMC,105303.000,A,4041.5462,N,07358.7384,W,1.53,207.36,050216,,,A*7A,47.80,15.20,0.19

$GPRMC,105304.000,A,4041.5461,N,07358.7380,W,1.39,205.46,050216,,,A*73,47.80,15.20,0.17

$GPRMC,105305.000,A,4041.5464,N,07358.7377,W,1.20,206.51,050216,,,A*72,47.90,15.20,0.18

$GPRMC,105306.000,A,4041.5462,N,07358.7379,W,1.21,208.85,050216,,,A*7F,47.90,15.20,0.18

$GPRMC,105307.000,A,4041.5461,N,07358.7380,W,1.15,210.76,050216,,,A*79,48.00,15.20,0.17

$GPRMC,105307.220,A,4041.5463,N,07358.7377,W,1.08,211.41,050216,,,A*7A,48.00,15.20,0.17

$GPRMC,105309.000,A,4041.5464,N,07358.7368,W,0.87,208.18,050216,,,A*7F,48.00,15.20,0.18

$GPRMC,105310.000,A,4041.5466,N,07358.7354,W,0.65,196.82,050216,,,A*71,48.00,15.20,0.25

$GPRMC,105311.000,A,4041.5465,N,07358.7345,W,0.61,185.79,050216,,,A*71,48.10,15.20,0.17

$GPRMC,105312.000,A,4041.5464,N,07358.7334,W,0.60,171.69,050216,,,A*7E,48.10,15.20,0.18

$GPRMC,105313.000,A,4041.5461,N,07358.7319,W,0.68,158.35,050216,,,A*7F,48.20,15.20,0.29

$GPRMC,105313.216,A,4041.5459,N,07358.7307,W,0.79,151.63,050216,,,A*74,48.20,15.20,0.23

$GPRMC,105315.000,A,4041.5454,N,07358.7296,W,0.88,148.13,050216,,,A*72,48.20,15.20,0.17

$GPRMC,105316.000,A,4041.5452,N,07358.7284,W,0.93,140.90,050216,,,A*7D,48.20,15.20,0.18

$GPRMC,105317.000,A,4041.5451,N,07358.7273,W,0.99,133.46,050216,,,A*72,47.90,15.20,0.17

$GPRMC,105318.000,A,4041.5447,N,07358.7260,W,1.11,129.63,050216,,,A*75,47.90,15.20,0.16

$GPRMC,105319.000,A,4041.5444,N,07358.7249,W,1.19,128.85,050216,,,A*7D,47.80,15.20,0.18

$GPRMC,105319.210,A,4041.5440,N,07358.7241,W,1.30,129.78,050216,,,A*7A,47.80,15.20,0.18

$GPRMC,105321.000,A,4041.5434,N,07358.7228,W,1.39,129.53,050216,,,A*7E,47.80,15.20,0.19

$GPRMC,105322.000,A,4041.5429,N,07358.7220,W,1.43,130.84,050216,,,A*76,47.80,15.20,0.17

$GPRMC,105323.000,A,4041.5424,N,07358.7211,W,1.48,131.32,050216,,,A*7F,48.10,15.20,0.18

$GPRMC,105324.000,A,4041.5421,N,07358.7204,W,1.49,130.57,050216,,,A*7A,48.10,15.20,0.18

$GPRMC,105325.000,A,4041.5418,N,07358.7196,W,1.51,129.39,050216,,,A*70,47.90,15.20,0.17

$GPRMC,105325.210,A,4041.5416,N,07358.7191,W,1.55,128.28,050216,,,A*7F,47.90,15.20,0.17

$GPRMC,105327.000,A,4041.5413,N,07358.7179,W,1.54,124.04,050216,,,A*7E,47.90,15.20,0.18

$GPRMC,105328.000,A,4041.5410,N,07358.7170,W,1.59,123.23,050216,,,A*74,47.90,15.20,0.19

$GPRMC,105329.000,A,4041.5405,N,07358.7160,W,1.69,121.51,050216,,,A*74,47.80,15.20,0.18

$GPRMC,105330.000,A,4041.5400,N,07358.7149,W,1.80,121.03,050216,,,A*72,47.80,15.20,0.18

$GPRMC,105331.000,A,4041.5397,N,07358.7140,W,1.90,118.78,050216,,,A*74,47.80,15.20,0.19

$GPRMC,105331.216,A,4041.5395,N,07358.7138,W,1.95,118.16,050216,,,A*71,47.80,15.20,0.19

$GPRMC,105333.000,A,4041.5391,N,07358.7135,W,1.86,119.15,050216,,,A*7F,48.00,15.20,0.18

$GPRMC,105334.000,A,4041.5391,N,07358.7141,W,1.67,120.40,050216,,,A*7E,48.00,15.20,0.18

$GPRMC,105335.000,A,4041.5394,N,07358.7148,W,1.45,121.08,050216,,,A*7E,48.10,15.20,0.18

$GPRMC,105336.000,A,4041.5399,N,07358.7156,W,1.16,117.18,050216,,,A*7D,48.10,15.20,0.17

$GPRMC,105337.218,A,4041.5407,N,07358.7169,W,0.89,111.31,050216,,,A*71,48.10,15.20,0.17

$GPRMC,105339.000,A,4041.5415,N,07358.7182,W,0.67,101.71,050216,,,A*77,48.00,15.20,0.17

$GPRMC,105340.000,A,4041.5425,N,07358.7200,W,0.44,83.25,050216,,,A*48,48.00,15.20,0.17

$GPRMC,105341.000,A,4041.5431,N,07358.7204,W,0.29,48.02,050216,,,A*41,48.00,15.20,0.18

$GPRMC,105342.000,A,4041.5438,N,07358.7210,W,0.32,358.73,050216,,,A*70,48.00,15.20,0.17

$GPRMC,105343.000,A,4041.5447,N,07358.7215,W,0.52,341.56,050216,,,A*75,47.90,15.20,0.18

$GPRMC,105343.210,A,4041.5447,N,07358.7215,W,0.65,335.54,050216,,,A*73,47.90,15.20,0.18

$GPRMC,105345.000,A,4041.5459,N,07358.7223,W,0.79,333.40,050216,,,A*72,48.10,15.20,0.18

$GPRMC,105346.000,A,4041.5468,N,07358.7232,W,0.90,331.35,050216,,,A*74,48.10,15.20,0.18

$GPRMC,105347.000,A,4041.5476,N,07358.7244,W,1.01,328.75,050216,,,A*7E,48.20,15.20,0.18

$GPRMC,105348.000,A,4041.5482,N,07358.7259,W,1.10,323.37,050216,,,A*7B,48.20,15.20,0.19

$GPRMC,105349.000,A,4041.5487,N,07358.7276,W,1.21,318.02,050216,,,A*7E,48.20,15.20,0.17

$GPRMC,105349.209,A,4041.5488,N,07358.7291,W,1.32,312.84,050216,,,A*75,48.20,15.20,0.17

$GPRMC,105351.000,A,4041.5494,N,07358.7312,W,1.43,308.03,050216,,,A*72,48.10,15.20,0.19

$GPRMC,105352.000,A,4041.5499,N,07358.7330,W,1.56,306.72,050216,,,A*70,48.10,15.20,0.18

$GPRMC,105353.000,A,4041.5502,N,07358.7348,W,1.66,304.20,050216,,,A*7B,48.10,15.20,0.19

$GPRMC,105354.000,A,4041.5502,N,07358.7362,W,1.69,301.45,050216,,,A*7D,48.10,15.20,0.19

$GPRMC,105355.000,A,4041.5497,N,07358.7376,W,1.67,296.76,050216,,,A*75,48.10,15.20,0.17

$GPRMC,105355.211,A,4041.5490,N,07358.7385,W,1.65,292.92,050216,,,A*70,48.10,15.20,0.18

$GPRMC,105357.000,A,4041.5487,N,07358.7406,W,1.72,289.15,050216,,,A*79,48.00,15.20,0.19

$GPRMC,105358.000,A,4041.5485,N,07358.7426,W,1.89,287.08,050216,,,A*70,48.00,15.20,0.19

$GPRMC,105359.000,A,4041.5482,N,07358.7449,W,2.08,284.29,050216,,,A*75,48.10,15.20,0.19

$GPRMC,105400.000,A,4041.5480,N,07358.7467,W,2.20,282.32,050216,,,A*76,48.10,15.20,0.19

$GPRMC,105401.000,A,4041.5475,N,07358.7485,W,2.28,279.44,050216,,,A*7C,48.10,15.20,0.18

$GPRMC,105401.216,A,4041.5468,N,07358.7490,W,2.30,276.76,050216,,,A*76,48.10,15.20,0.18

$GPRMC,105403.000,A,4041.5462,N,07358.7508,W,2.33,273.18,050216,,,A*75,48.20,15.20,0.19

$GPRMC,105404.000,A,4041.5456,N,07358.7524,W,2.41,270.31,050216,,,A*76,48.20,15.20,0.18

$GPRMC,105405.000,A,4041.5448,N,07358.7544,W,2.52,267.15,050216,,,A*7C,48.20,15.20,0.19

$GPRMC,105406.000,A,4041.5441,N,07358.7563,W,2.63,264.55,050216,,,A*76,48.20,15.20,0.18

$GPRMC,105407.000,A,4041.5434,N,07358.7583,W,2.73,262.76,050216,,,A*7D,48.00,15.20,0.17

$GPRMC,105407.208,A,4041.5432,N,07358.7589,W,2.74,261.72,050216,,,A*7B,48.00,15.20,0.17

$GPRMC,105409.000,A,4041.5429,N,07358.7606,W,2.66,261.50,050216,,,A*72,48.00,15.20,0.19

$GPRMC,105410.000,A,4041.5432,N,07358.7610,W,2.51,262.39,050216,,,A*7F,48.00,15.20,0.19

$GPRMC,105412.000,A,4041.5450,N,07358.7611,W,2.16,267.54,050216,,,A*75,48.20,15.20,0.19

$GPRMC,105413.206,A,4041.5464,N,07358.7606,W,1.93,271.74,050216,,,A*7A,48.10,15.20,0.17

$GPRMC,105415.000,A,4041.5474,N,07358.7615,W,1.86,274.55,050216,,,A*79,47.60,15.20,0.19

$GPRMC,105416.000,A,4041.5480,N,07358.7619,W,1.82,275.63,050216,,,A*7D,47.60,15.20,0.17

$GPRMC,105417.000,A,4041.5492,N,07358.7618,W,1.75,279.72,050216,,,A*7A,48.20,15.20,0.19

$GPRMC,105418.000,A,4041.5503,N,07358.7617,W,1.68,283.69,050216,,,A*70,48.20,15.20,0.18

$GPRMC,105421.000,A,4041.5521,N,07358.7596,W,1.21,287.37,050216,,,A*72,48.00,15.20,0.20

$GPRMC,105422.000,A,4041.5522,N,07358.7589,W,1.06,285.52,050216,,,A*78,48.00,15.20,0.18

$GPRMC,105423.000,A,4041.5520,N,07358.7587,W,0.99,278.85,050216,,,A*7A,47.90,15.20,0.19

$GPRMC,105424.000,A,4041.5519,N,07358.7586,W,0.94,274.11,050216,,,A*7A,47.90,15.20,0.18

$GPRMC,105427.000,A,4041.5530,N,07358.7586,W,0.88,279.74,050216,,,A*71,47.80,15.20,0.18

$GPRMC,105428.000,A,4041.5535,N,07358.7584,W,0.85,282.87,050216,,,A*7C,47.80,15.20,0.18

$GPRMC,105429.000,A,4041.5538,N,07358.7583,W,0.80,283.39,050216,,,A*76,47.90,15.20,0.37

$GPRMC,105430.000,A,4041.5537,N,07358.7578,W,0.71,279.72,050216,,,A*71,47.90,15.20,0.18

$GPRMC,105431.209,A,4041.5538,N,07358.7567,W,0.53,278.29,050216,,,A*75,48.00,15.20,0.19

$GPRMC,105433.000,A,4041.5535,N,07358.7567,W,0.50,263.46,050216,,,A*71,48.00,15.20,0.19

$GPRMC,105434.000,A,4041.5530,N,07358.7563,W,0.47,247.28,050216,,,A*7F,48.00,15.20,0.18

$GPRMC,105435.000,A,4041.5525,N,07358.7560,W,0.51,231.14,050216,,,A*70,48.20,15.20,0.18

$GPRMC,105440.000,A,4041.5520,N,07358.7565,W,0.48,206.84,050216,,,A*77,48.10,15.20,0.18

$GPRMC,105441.000,A,4041.5518,N,07358.7566,W,0.48,200.06,050216,,,A*72,48.10,15.20,0.20

$GPRMC,105442.000,A,4041.5517,N,07358.7566,W,0.52,190.50,050216,,,A*7C,48.20,15.20,0.18

$GPRMC,105443.000,A,4041.5516,N,07358.7566,W,0.58,184.13,050216,,,A*74,48.20,15.20,0.20

$GPRMC,105443.210,A,4041.5511,N,07358.7559,W,0.63,179.16,050216,,,A*73,48.20,15.20,0.20

$GPRMC,105445.000,A,4041.5514,N,07358.7553,W,0.54,175.88,050216,,,A*76,48.20,15.20,0.19

$GPRMC,105446.000,A,4041.5518,N,07358.7544,W,0.51,167.30,050216,,,A*7A,48.20,15.20,0.18

$GPRMC,105447.000,A,4041.5523,N,07358.7535,W,0.45,146.85,050216,,,A*7D,48.20,15.20,0.18

$GPRMC,105448.000,A,4041.5526,N,07358.7525,W,0.58,131.91,050216,,,A*7F,48.20,15.20,0.17

$GPRMC,105449.000,A,4041.5526,N,07358.7504,W,0.74,122.18,050216,,,A*70,48.20,15.20,0.17

$GPRMC,105449.216,A,4041.5526,N,07358.7487,W,0.88,115.01,050216,,,A*70,48.20,15.20,0.17

$GPRMC,105451.000,A,4041.5528,N,07358.7459,W,1.09,104.35,050216,,,A*7E,48.20,15.20,0.17

$GPRMC,105452.000,A,4041.5529,N,07358.7436,W,1.26,100.88,050216,,,A*7A,48.20,15.20,0.18

$GPRMC,105453.000,A,4041.5525,N,07358.7419,W,1.37,102.67,050216,,,A*79,48.20,15.20,0.18

$GPRMC,105454.000,A,4041.5522,N,07358.7403,W,1.48,102.71,050216,,,A*7D,48.20,15.20,0.17

$GPRMC,105455.000,A,4041.5520,N,07358.7396,W,1.49,102.36,050216,,,A*77,48.20,15.20,0.19

$GPRMC,105455.209,A,4041.5519,N,07358.7393,W,1.49,101.51,050216,,,A*71,48.20,15.20,0.19

$GPRMC,105457.000,A,4041.5516,N,07358.7386,W,1.46,101.54,050216,,,A*79,48.20,15.20,0.17

$GPRMC,105458.000,A,4041.5514,N,07358.7384,W,1.39,100.63,050216,,,A*7B,48.20,15.20,0.18

$GPRMC,105459.000,A,4041.5514,N,07358.7383,W,1.31,99.00,050216,,,A*41,48.20,15.20,0.18

$GPRMC,105500.000,A,4041.5512,N,07358.7380,W,1.26,99.11,050216,,,A*4F,48.20,15.20,0.20

$GPRMC,105501.000,A,4041.5509,N,07358.7375,W,1.27,101.66,050216,,,A*7F,48.20,15.20,0.17

$GPRMC,105501.211,A,4041.5508,N,07358.7371,W,1.28,101.64,050216,,,A*75,48.20,15.20,0.17

$GPRMC,105503.000,A,4041.5505,N,07358.7359,W,1.31,103.67,050216,,,A*7B,48.00,15.20,0.18

$GPRMC,105506.000,A,4041.5500,N,07358.7340,W,1.25,104.32,050216,,,A*71,48.00,15.20,0.19

$GPRMC,105507.000,A,4041.5499,N,07358.7336,W,1.20,103.16,050216,,,A*74,48.00,15.20,0.18

$GPRMC,105507.208,A,4041.5499,N,07358.7336,W,1.15,103.20,050216,,,A*7D,48.00,15.20,0.18

$GPRMC,105510.000,A,4041.5492,N,07358.7324,W,1.11,109.28,050216,,,A*7F,48.00,15.20,0.18

$GPRMC,105511.000,A,4041.5489,N,07358.7319,W,1.13,111.38,050216,,,A*70,48.00,15.20,0.20

$GPRMC,105512.000,A,4041.5490,N,07358.7313,W,1.11,109.52,050216,,,A*76,48.10,15.20,0.18

$GPRMC,105513.000,A,4041.5491,N,07358.7307,W,1.08,107.48,050216,,,A*7E,48.10,15.20,0.17

$GPRMC,105513.209,A,4041.5494,N,07358.7305,W,1.04,104.77,050216,,,A*71,48.10,15.20,0.17

$GPRMC,105518.000,A,4041.5490,N,07358.7295,W,0.84,103.66,050216,,,A*73,48.20,15.20,0.18

$GPRMC,105523.000,A,4041.5500,N,07358.7295,W,0.52,76.98,050216,,,A*4A,48.10,15.20,0.19

$GPRMC,105525.000,A,4041.5501,N,07358.7299,W,0.39,72.38,050216,,,A*42,47.70,15.20,0.19

$GPRMC,105525.220,A,4041.5501,N,07358.7301,W,0.34,71.16,050216,,,A*40,47.70,15.20,0.19

$GPRMC,105527.000,A,4041.5502,N,07358.7299,W,0.38,70.85,050216,,,A*46,48.00,15.20,0.19

$GPRMC,105528.000,A,4041.5502,N,07358.7297,W,0.47,71.76,050216,,,A*42,48.10,15.20,0.20

$GPRMC,105529.000,A,4041.5503,N,07358.7296,W,0.55,70.11,050216,,,A*40,48.10,15.20,0.20

$GPRMC,105531.216,A,4041.5508,N,07358.7279,W,0.80,72.48,050216,,,A*40,48.20,15.20,0.19

$GPRMC,105533.000,A,4041.5513,N,07358.7268,W,0.87,71.60,050216,,,A*43,48.00,15.20,0.18

$GPRMC,105534.000,A,4041.5520,N,07358.7262,W,0.90,66.81,050216,,,A*41,48.00,15.20,0.18

$GPRMC,105535.000,A,4041.5530,N,07358.7255,W,0.97,59.89,050216,,,A*46,48.00,15.20,0.19

$GPRMC,105536.000,A,4041.5541,N,07358.7245,W,1.10,53.08,050216,,,A*4F,48.00,15.20,0.18

$GPRMC,105539.000,A,4041.5556,N,07358.7220,W,1.28,51.37,050216,,,A*40,47.90,15.20,0.18

$GPRMC,105540.000,A,4041.5564,N,07358.7211,W,1.37,48.79,050216,,,A*41,48.00,15.20,0.18

$GPRMC,105541.000,A,4041.5570,N,07358.7203,W,1.41,48.90,050216,,,A*40,48.00,15.20,0.18

$GPRMC,105542.000,A,4041.5574,N,07358.7195,W,1.45,49.51,050216,,,A*43,48.00,15.20,0.19

$GPRMC,105543.000,A,4041.5570,N,07358.7196,W,1.38,50.77,050216,,,A*43,48.00,15.20,0.19

$GPRMC,105543.220,A,4041.5566,N,07358.7199,W,1.33,51.08,050216,,,A*49,48.00,15.20,0.19

$GPRMC,105545.000,A,4041.5562,N,07358.7196,W,1.25,54.02,050216,,,A*4C,48.00,15.20,0.18

$GPRMC,105546.000,A,4041.5553,N,07358.7198,W,1.14,58.44,050216,,,A*4F,48.00,15.20,0.18

$GPRMC,105547.000,A,4041.5547,N,07358.7199,W,1.05,61.86,050216,,,A*4E,48.00,15.20,0.19

$GPRMC,105548.000,A,4041.5542,N,07358.7204,W,0.93,62.49,050216,,,A*4D,48.00,15.20,0.16

$GPRMC,105549.000,A,4041.5534,N,07358.7210,W,0.78,66.01,050216,,,A*45,47.90,15.20,0.18

$GPRMC,105549.216,A,4041.5529,N,07358.7217,W,0.66,68.69,050216,,,A*44,47.90,15.20,0.18

$GPRMC,105551.000,A,4041.5523,N,07358.7220,W,0.56,76.95,050216,,,A*49,47.90,15.20,0.16

$GPRMC,105552.000,A,4041.5516,N,07358.7223,W,0.51,89.04,050216,,,A*40,47.90,15.20,0.18

$GPRMC,105553.000,A,4041.5509,N,07358.7223,W,0.54,102.40,050216,,,A*78,47.80,15.20,0.16

$GPRMC,105554.000,A,4041.5502,N,07358.7222,W,0.60,110.83,050216,,,A*7E,47.80,15.20,0.18

$GPRMC,105555.000,A,4041.5492,N,07358.7222,W,0.69,123.58,050216,,,A*78,47.70,15.20,0.17

$GPRMC,105555.216,A,4041.5485,N,07358.7225,W,0.76,132.77,050216,,,A*7F,47.70,15.20,0.17

$GPRMC,105557.000,A,4041.5478,N,07358.7222,W,0.82,135.05,050216,,,A*74,47.80,15.20,0.18

$GPRMC,105558.000,A,4041.5470,N,07358.7222,W,0.86,138.53,050216,,,A*79,47.80,15.20,0.43

$GPRMC,105559.000,A,4041.5463,N,07358.7222,W,0.88,141.99,050216,,,A*7C,47.90,15.20,0.18

$GPRMC,105600.000,A,4041.5459,N,07358.7224,W,0.84,145.93,050216,,,A*7E,47.90,15.20,0.20

$GPRMC,105601.000,A,4041.5460,N,07358.7230,W,0.72,150.19,050216,,,A*7F,47.90,15.20,0.18

$GPRMC,105601.220,A,4041.5460,N,07358.7236,W,0.65,156.79,050216,,,A*7F,47.90,15.20,0.18

$GPRMC,105603.000,A,4041.5457,N,07358.7244,W,0.59,165.60,050216,,,A*7B,48.00,15.20,0.17

$GPRMC,105604.000,A,4041.5455,N,07358.7251,W,0.58,174.04,050216,,,A*79,48.00,15.20,0.17

$GPRMC,105605.000,A,4041.5452,N,07358.7259,W,0.59,182.05,050216,,,A*7E,48.00,15.20,0.18

$GPRMC,105606.000,A,4041.5453,N,07358.7268,W,0.52,194.45,050216,,,A*76,48.00,15.20,0.17

$GPRMC,105607.000,A,4041.5456,N,07358.7275,W,0.44,216.37,050216,,,A*75,48.10,15.20,0.20

$GPRMC,105607.216,A,4041.5459,N,07358.7282,W,0.45,236.91,050216,,,A*78,48.10,15.20,0.21

$GPRMC,105609.000,A,4041.5460,N,07358.7288,W,0.45,251.52,050216,,,A*7D,47.90,15.20,0.18

$GPRMC,105610.000,A,4041.5460,N,07358.7290,W,0.48,261.72,050216,,,A*70,47.90,15.20,0.18

$GPRMC,105611.000,A,4041.5459,N,07358.7292,W,0.41,255.46,050216,,,A*70,47.70,15.20,0.18

$GPRMC,105612.000,A,4041.5459,N,07358.7293,W,0.35,240.59,050216,,,A*7B,47.70,15.20,0.19

$GPRMC,105613.000,A,4041.5458,N,07358.7294,W,0.29,224.35,050216,,,A*79,47.70,15.20,0.18

$GPRMC,105613.216,A,4041.5458,N,07358.7294,W,0.25,198.19,050216,,,A*7A,47.70,15.20,0.17

$GPRMC,105615.000,A,4041.5457,N,07358.7294,W,0.20,161.25,050216,,,A*7A,47.80,15.20,0.18

$GPRMC,105616.000,A,4041.5457,N,07358.7294,W,0.18,120.68,050216,,,A*7E,47.80,15.20,0.19

$GPRMC,105617.000,A,4041.5456,N,07358.7293,W,0.24,88.52,050216,,,A*4C,48.00,15.20,0.18

$GPRMC,105618.000,A,4041.5457,N,07358.7292,W,0.35,69.37,050216,,,A*4F,48.00,15.20,0.20

$GPRMC,105619.000,A,4041.5457,N,07358.7291,W,0.46,62.07,050216,,,A*41,48.00,15.20,0.18

$GPRMC,105619.220,A,4041.5457,N,07358.7290,W,0.56,60.28,050216,,,A*4E,48.00,15.20,0.18

$GPRMC,124734.000,A,4041.5940,N,07358.7830,W,0.27,186.54,050216,,,A*7C,49.10,14.40,0.18

$GPRMC,124735.000,A,4041.5931,N,07358.7814,W,1.83,179.15,050216,,,A*77$GPRMC,124736.000,A,4041.5914,N,07358.7800,W,2.,48.50,14.40,0.17

$GPRMC,124737.000,A,4041.5913,N,07358.7799,W,0.80,179.92,050216,,,A*72,48.50,14.40,0.19

$GPRMC,124738.000,A,4041.5908,N,07358.7799,W,0.19,320.48,050216,,,A*7E,48.50,14.40,0.18

$GPRMC,124739.000,A,4041.5910,N,07358.7799,W,1.33,348.71,050216,,,A*7B,49.10,14.40,0.18

$GPRMC,124740.000,A,4041.5915,N,07358.7802,W,2.30,2.74,050216,,,A*75,49.10,14.40,0.19

$GPRMC,124741.000,A,4041.5918,N,07358.7803,W,2.03,351.49,050216,,,A*73,48.90,14.40,0.17

$GPRMC,124742.000,A,4041.5921,N,07358.7803,W,2.40,355.25,050216,,,A*73,48.90,14.40,0.19

$GPRMC,124743.000,A,4041.5923,N,07358.7805,W,1.99,348.65,050216,,,A*79,48.90,14.40,0.18

$GPRMC,124744.000,A,4041.5925,N,07358.7806,W,1.50,350.64,050216,,,A*76,48.90,14.40,0.18

$GPRMC,124745.000,A,4041.5926,N,07358.7806,W,0.92,358.29,050216,,,A*7A,49.00,14.40,0.18

$GPRMC,124746.000,A,4041.5926,N,07358.7806,W,0.70,352.68,050216,,,A*7A,49.00,14.40,0.18

$GPRMC,124747.000,A,4041.5926,N,07358.7809,W,0.94,287.25,050216,,,A*7E,49.10,14.40,0.17

$GPRMC,124748.000,A,4041.5923,N,07358.7811,W,0.54,245.54,050216,,,A*79,49.10,14.40,0.17

$GPRMC,124749.000,A,4041.5926,N,07358.7811,W,0.55,11.03,050216,,,A*4D,49.00,14.40,0.17

$GPRMC,124750.000,A,4041.5928,N,07358.7812,W,0.72,346.99,050216,,,A*7F,49.00,14.40,0.16

$GPRMC,124751.000,A,4041.5927,N,07358.7813,W,0.42,300.52,050216,,,A*76,48.90,14.40,0.18

$GPRMC,124752.000,A,4041.5929,N,07358.7815,W,0.21,348.96,050216,,,A*7C,48.90,14.40,0.16

$GPRMC,124753.000,A,4041.5931,N,07358.7816,W,2.24,352.02,050216,,,A*76,48.90,14.40,0.17

$GPRMC,124754.000,A,4041.5936,N,07358.7818,W,2.57,351.08,050216,,,A*75,48.90,14.40,0.18

$GPRMC,124755.000,A,4041.5943,N,07358.7820,W,2.04,349.13,050216,,,A*78,49.10,14.40,0.16

$GPRMC,124756.000,A,4041.5946,N,07358.7819,W,1.26,4.73,050216,,,A*7B,49.10,14.40,0.19

$GPRMC,124757.000,A,4041.5947,N,07358.7819,W,0.56,324.05,050216,,,A*7D,49.10,14.40,0.18

$GPRMC,124758.000,A,4041.5947,N,07358.7818,W,0.21,188.79,050216,,,A*7C,49.10,14.40,0.18

$GPRMC,124800.000,A,4041.5953,N,07358.7818,W,0.30,319.30,050216,,,A*7C,49.10,14.40,0.18

$GPRMC,124801.000,A,4041.5949,N,07358.7816,W,0.25,131.11,050216,,º,49.70,14.40,0.20

$GPRMC,124802.000,A,4041.5948,N,07358.7814,W,0.47,67.23,050216,,,A*40,49.70,14.40,0.19

$GPRMC,124803.000,A,4041.5949,N,07358.7812,W,0.91,40.47,050216,,,A*4A,49.10,14.40,0.18

$GPRMC,124804.000,A,4041.5951,N,07358.7811,W,0.76,351.53,050216,,,A*78,49.10,14.40,0.17

$GPRMC,124806.000,A,4041.5953,N,07358.7811,W,0.07,187.57,050216,,,A*73,48.80,14.40,0.17

$GPRMC,124808.000,A,4041.5956,N,07358.7811,W,0.42,329.88,050216,,,A*7D,49.10,14.40,0.19

$GPRMC,124809.000,A,4041.5956,N,07358.7810,W,0.76,3.38,050216,,,A*7A,49.10,14.40,0.18

$GPRMC,124810.000,A,4041.5955,N,07358.7808,W,0.27,41.59,050216,,,A*4D,49.10,14.40,0.19

$GPRMC,124811.000,A,4041.5960,N,07358.7807,W,0.89,8.97,050216,,,A*7E,48.90,14.40,0.18

$GPRMC,124812.000,A,4041.5961,N,07358.7807,W,0.39,324.61,050216,,,A*73,48.90,14.40,0.18

$GPRMC,124813.000,A,4041.5966,N,07358.7806,W,0.62,353.05,050216,,,A*78$GPRMC,124814.000,A,4041.5968,N,07358.7806,W,0,49.10,14.40,0.19

$GPRMC,124815.000,A,4041.5969,N,07358.7804,W,1.05,5.07,050216,,,A*71,48.80,14.40,0.18

$GPRMC,124816.000,A,4041.5971,N,07358.7802,W,0.80,29.98,050216,,,A*49,48.80,14.40,0.17

$GPRMC,124817.000,A,4041.5973,N,07358.7801,W,0.64,13.27,050216,,,A*4E,49.10,14.40,0.19

$GPRMC,124818.000,A,4041.5976,N,07358.7801,W,1.11,355.54,050216,,,A*72,49.10,14.40,0.18

$GPRMC,124819.000,A,4041.5977,N,07358.7802,W,0.53,334.72,050216,,,A*75,49.00,14.40,0.19

$GPRMC,124820.000,A,4041.5978,N,07358.7803,W,0.60,338.90,050216,,,A*71,49.00,14.40,0.18

$GPRMC,124821.000,A,4041.5981,N,07358.7802,W,0.90,13.06,050216,,,A*4D,49.20,14.40,0.19

$GPRMC,124822.000,A,4041.5982,N,07358.7802,W,0.55,318.99,050216,,,A*7A,49.20,14.40,0.19

$GPRMC,124823.000,A,4041.5979,N,07358.7802,W,0.12,84.22,050216,,,A*4A,49.30,14.40,0.18

$GPRMC,124824.000,A,4041.5978,N,07358.7801,W,0.18,332.84,050216,,,A*77,49.30,14.40,0.18

$GPRMC,124825.000,A,4041.5979,N,07358.7802,W,0.12,284.03,050216,,,A*7D,49.20,14.40,0.18

$GPRMC,124826.000,A,4041.5979,N,07358.7802,W,0.33,312.55,050216,,,A*70,49.20,14.40,0.17

$GPRMC,124827.000,A,4041.5979,N,07358.7803,W,0.32,47.27,050216,,,A*47,49.10,14.40,0.19

$GPRMC,124828.000,A,4041.5980,N,07358.7802,W,0.68,355.13,050216,,,A*77,49.10,14.40,0.18

$GPRMC,124829.000,A,4041.5978,N,07358.7804,W,0.55,286.14,050216,,,A*71,49.20,14.40,0.18

$GPRMC,124830.000,A,4041.5979,N,07358.7804,W,0.59,20.06,050216,,,A*49,49.20,14.40,0.18

$GPRMC,124831.000,A,4041.5980,N,07358.7804,W,0.32,24.34,050216,,,A*46,49.20,14.40,0.19

$GPRMC,124832.000,A,4041.5979,N,07358.7804,W,0.18,68.98,050216,,,A*45,49.20,14.40,0.17

$GPRMC,124833.000,A,4041.5978,N,07358.7805,W,0.21,238.07,050216,,,A*7F,49.30,14.40,0.19

$GPRMC,124834.000,A,4041.5982,N,07358.7807,W,0.78,337.52,050216,,,A*7D,49.30,14.40,0.18

$GPRMC,124835.000,A,4041.5985,N,07358.7810,W,1.12,322.18,050216,,,A*7A,49.10,14.40,0.19

$GPRMC,124836.000,A,4041.5988,N,07358.7813,W,1.17,336.17,050216,,,A*78,49.10,14.40,0.18

$GPRMC,124837.000,A,4041.5988,N,07358.7815,W,0.77,329.75,050216,,,A*72,49.10,14.40,0.19

$GPRMC,124838.000,A,4041.5992,N,07358.7818,W,0.35,319.66,050216,,,A*7C,49.10,14.40,0.33

$GPRMC,124839.000,A,4041.5994,N,07358.7819,W,0.61,10.01,050216,,,A*40,49.10,14.40,0.22

$GPRMC,124840.000,A,4041.5993,N,07358.7819,W,0.15,333.76,050216,,,A*78,49.10,14.40,0.19

$GPRMC,124841.000,A,4041.5994,N,07358.7820,W,0.98,1.39,050216,,,A*78,49.00,14.40,0.19

$GPRMC,124842.000,A,4041.5994,N,07358.7821,W,1.08,341.17,050216,,,A*79,49.00,14.40,0.19

$GPRMC,124843.000,A,4041.5987,N,07358.7820,W,0.32,318.01,050216,,,A*78,49.10,14.40,0.17

$GPRMC,124844.000,A,4041.5981,N,07358.7820,W,0.86,179.84,050216,,,A*7E,49.10,14.40,0.18

$GPRMC,124845.000,A,4041.5977,N,07358.7820,W,0.80,203.93,050216,,,A*78,49.20,14.40,0.18

$GPRMC,124846.000,A,4041.5973,N,07358.7819,W,0.66,207.49,050216,,,A*7E,49.20,14.40,0.17

$GPRMC,124847.000,A,4041.5972,N,07358.7821,W,0.62,264.92,050216,,,A*72,49.20,14.40,0.18

$GPRMC,124848.000,A,4041.5969,N,07358.7821,W,0.19,242.01,050216,,,A*75,49.20,14.40,0.18

$GPRMC,124849.000,A,4041.5968,N,07358.7819,W,0.18,25.89,050216,,,A*4C,49.10,14.40,0.18

$GPRMC,124850.000,A,4041.5969,N,07358.7819,W,0.37,318.94,050216,,,A*79,49.10,14.40,0.18

$GPRMC,124851.000,A,4041.5965,N,07358.7820,W,0.66,260.73,050216,,,A*7D,49.10,14.40,0.18

$GPRMC,124852.000,A,4041.5960,N,07358.7820,W,0.71,210.25,050216,,,A*79,49.10,14.40,0.17

$GPRMC,124853.000,A,4041.5953,N,07358.7819,W,0.76,211.83,050216,,,A*78,49.10,14.40,0.18

$GPRMC,124854.000,A,4041.5949,N,07358.7819,W,0.84,196.30,050216,,,A*7D,49.10,14.40,0.16

$GPRMC,124855.000,A,4041.5948,N,07358.7818,W,0.10,14.94,050216,,,A*44,49.10,14.40,0.16

$GPRMC,124856.000,A,4041.5947,N,07358.7817,W,0.21,160.58,050216,,,A*77,49.10,14.40,0.17

$GPRMC,124857.000,A,4041.5945,N,07358.7817,W,0.54,218.35,050216,,,A*71,49.10,14.40,0.18

$GPRMC,124858.000,A,4041.5941,N,07358.7817,W,0.91,180.36,050216,,,A*72,49.20,14.40,0.18

$GPRMC,124859.000,A,4041.5937,N,07358.7817,W,0.83,171.72,050216,,,A*7F,49.20,14.40,0.16

$GPRMC,124900.000,A,4041.5936,N,07358.7816,W,0.30,100.92,050216,,,A*72,49.20,14.40,0.17

$GPRMC,124901.000,A,4041.5937,N,07358.7814,W,0.47,66.59,050216,,,A*46,49.20,14.40,0.17

$GPRMC,124902.000,A,4041.5937,N,07358.7813,W,0.22,26.94,050216,,,A*44,49.10,14.40,0.17

$GPRMC,124903.000,A,4041.5939,N,07358.7813,W,0.34,354.55,050216,,,A*77,49.10,14.40,0.19

$GPRMC,124904.000,A,4041.5940,N,07358.7814,W,0.29,64.29,050216,,,A*4E,49.20,14.40,0.18

$GPRMC,124905.000,A,4041.5941,N,07358.7813,W,0.64,50.89,050216,,,A*4D,49.20,14.40,0.18

$GPRMC,124906.000,A,4041.5941,N,07358.7812,W,0.21,34.68,050216,,,A*43,49.30,14.40,0.18

$GPRMC,124907.000,A,4041.5942,N,07358.7812,W,0.13,338.00,050216,,,A*71,49.30,14.40,0.17

$GPRMC,124908.000,A,4041.5943,N,07358.7812,W,0.46,358.27,050216,,,A*7C,49.30,14.40,0.17

$GPRMC,124909.000,A,4041.5945,N,07358.7814,W,0.79,330.60,050216,,,A*7C,49.30,14.40,0.19

$GPRMC,124910.000,A,4041.5945,N,07358.7815,W,0.27,275.13,050216,,,A*7A,49.30,14.40,0.19

$GPRMC,124911.000,A,4041.5943,N,07358.7816,W,0.27,229.71,050216,,,A*73,49.30,14.40,0.16

$GPRMC,124912.000,A,4041.5945,N,07358.7817,W,0.51,339.21,050216,,,A*73,49.20,14.40,0.18

$GPRMC,124913.000,A,4041.5947,N,07358.7818,W,0.48,332.54,050216,,,A*7E,49.20,14.40,0.18

$GPRMC,124914.000,A,4041.5948,N,07358.7818,W,0.66,2.38,050216,,,A*70,49.10,14.40,0.19

$GPRMC,124915.000,A,4041.5954,N,07358.7818,W,1.20,12.53,050216,,,A*43,49.10,14.40,0.19

$GPRMC,124916.000,A,4041.5959,N,07358.7817,W,1.16,23.72,050216,,,A*46,49.20,14.40,0.18

$GPRMC,124917.000,A,4041.5959,N,07358.7817,W,0.33,348.85,050216,,,A*77,49.20,14.40,0.18

$GPRMC,124918.000,A,4041.5959,N,07358.7818,W,0.46,307.38,050216,,,A*78,49.20,14.40,0.18

$GPRMC,124919.000,A,4041.5962,N,07358.7819,W,0.62,319.84,050216,,,A*7E,49.20,14.40,0.18

$GPRMC,124920.000,A,4041.5966,N,07358.7818,W,1.04,14.01,050216,,,A*43,49.30,14.40,0.17

$GPRMC,124921.000,A,4041.5967,N,07358.7816,W,1.18,29.97,050216,,,A*41,49.30,14.40,0.17

$GPRMC,124922.000,A,4041.5969,N,07358.7814,W,1.26,23.55,050216,,,A*47,49.40,14.40,0.21

$GPRMC,124923.000,A,4041.5968,N,07358.7813,W,0.54,17.51,050216,,,A*47,49.40,14.40,0.17

$GPRMC,124924.000,A,4041.5965,N,07358.7813,W,0.17,333.21,050216,,,A*78,49.30,14.40,0.19

$GPRMC,124925.000,A,4041.5961,N,07358.7813,W,0.11,109.96,050216,,,A*7C,49.30,14.40,0.18

$GPRMC,124926.000,A,4041.5959,N,07358.7815,W,0.23,300.12,050216,,,A*74,49.30,14.40,0.19

$GPRMC,124927.000,A,4041.5960,N,07358.7816,W,0.08,314.80,050216,,,A*7B,49.30,14.40,0.19

$GPRMC,124928.000,A,4041.5960,N,07358.7816,W,0.16,51.13,050216,,,A*43,49.30,14.40,0.25

$GPRMC,124929.000,A,4041.5960,N,07358.7815,W,0.35,42.82,050216,,,A*4A,49.30,14.40,0.19

$GPRMC,124930.000,A,4041.5961,N,07358.7815,W,0.78,358.91,050216,,,A*70,49.40,14.40,0.20

$GPRMC,124931.000,A,4041.5961,N,07358.7816,W,0.64,347.37,050216,,,A*7D,49.40,14.40,0.18

$GPRMC,124932.000,A,4041.5957,N,07358.7815,W,0.14,100.13,050216,,,A*78,49.40,14.40,0.17

$GPRMC,124933.000,A,4041.5956,N,07358.7814,W,0.72,53.20,050216,,,A*4E,49.40,14.40,0.18

$GPRMC,124934.000,A,4041.5954,N,07358.7812,W,0.80,50.50,050216,,,A*44,49.40,14.40,0.17

$GPRMC,124935.000,A,4041.5957,N,07358.7811,W,1.30,2.95,050216,,,A*71,49.40,14.40,0.18

$GPRMC,124936.000,A,4041.5956,N,07358.7811,W,0.87,348.52,050216,,,A*78,49.30,14.40,0.17

$GPRMC,124937.000,A,4041.5952,N,07358.7809,W,0.75,44.10,050216,,,A*40,49.30,14.40,0.17

$GPRMC,124938.000,A,4041.5951,N,07358.7807,W,0.43,29.32,050216,,,A*4C,49.30,14.40,0.19

$GPRMC,124939.000,A,4041.5949,N,07358.7808,W,0.49,329.12,050216,,,A*70,49.30,14.40,0.17

$GPRMC,124940.000,A,4041.5945,N,07358.7808,W,0.23,315.64,050216,,,A*70,49.40,14.40,0.18

$GPRMC,124941.000,A,4041.5943,N,07358.7809,W,0.65,343.46,050216,,,A*77,49.40,14.40,0.19

$GPRMC,124942.000,A,4041.5943,N,07358.7808,W,1.15,6.68,050216,,,A*7D,49.30,14.40,0.17

$GPRMC,124943.000,A,4041.5944,N,07358.7807,W,0.54,8.74,050216,,,A*73,49.30,14.40,0.18

$GPRMC,124944.000,A,4041.5945,N,07358.7804,W,0.72,32.07,050216,,,A*4F,49.30,14.40,0.19

$GPRMC,124945.000,A,4041.5944,N,07358.7802,W,0.21,120.32,050216,,,A*7B,49.30,14.40,0.18

$GPRMC,124946.000,A,4041.5943,N,07358.7801,W,0.61,178.84,050216,,,A*78,49.20,14.40,0.18

$GPRMC,124947.000,A,4041.5946,N,07358.7800,W,0.58,15.39,050216,,,A*4B,49.20,14.40,0.17

$GPRMC,124948.000,A,4041.5953,N,07358.7801,W,1.56,356.00,050216,,,A*70,49.30,14.40,0.18

$GPRMC,124949.000,A,4041.5958,N,07358.7801,W,1.38,352.35,050216,,,A*70,49.30,14.40,0.17

$GPRMC,124950.000,A,4041.5963,N,07358.7801,W,0.72,345.64,050216,,,A*7D,49.30,14.40,0.19

$GPRMC,124951.000,A,4041.5965,N,07358.7799,W,0.68,212.76,050216,,,A*7F,49.30,14.40,0.17

$GPRMC,124952.000,A,4041.5968,N,07358.7798,W,0.34,284.13,050216,,,A*75,49.20,14.40,0.18

$GPRMC,124953.000,A,4041.5976,N,07358.7796,W,2.14,10.14,050216,,,A*4D,49.20,14.40,0.17

$GPRMC,124954.000,A,4041.5982,N,07358.7793,W,2.51,16.83,050216,,,A*4D,49.10,14.40,0.20

$GPRMC,124955.000,A,4041.5985,N,07358.7786,W,2.46,31.41,050216,,,A*42,49.10,14.40,0.18

$GPRMC,124956.000,A,4041.5988,N,07358.7781,W,1.76,40.35,050216,,,A*4E,49.10,14.40,0.19

$GPRMC,124957.000,A,4041.5990,N,07358.7775,W,2.03,35.80,050216,,,A*40,49.10,14.40,0.17

$GPRMC,124958.000,A,4041.5992,N,07358.7771,W,1.27,49.26,050216,,,A*4B,49.30,14.40,0.23

$GPRMC,124959.000,A,4041.5995,N,07358.7766,W,1.48,43.92,050216,,,A*47,49.30,14.40,0.17

$GPRMC,125000.000,A,4041.6000,N,07358.7763,W,1.32,34.09,050216,,,A*4F,49.40,14.40,0.17

$GPRMC,125001.000,A,4041.6002,N,07358.7760,W,0.83,32.60,050216,,,A*4D,49.40,14.40,0.18

$GPRMC,125002.000,A,4041.6003,N,07358.7758,W,1.10,39.89,050216,,,A*43,49.30,14.40,0.18

$GPRMC,125003.000,A,4041.6008,N,07358.7753,W,1.44,39.42,050216,,,A*44,49.30,14.40,0.18

$GPRMC,125004.000,A,4041.6010,N,07358.7752,W,0.84,35.49,050216,,,A*41,49.30,14.40,0.19

$GPRMC,125005.000,A,4041.6011,N,07358.7751,W,0.78,27.85,050216,,,A*42,49.30,14.40,0.19

$GPRMC,125006.000,A,4041.6009,N,07358.7747,W,0.79,45.84,050216,,,A*4B,49.30,14.40,0.17

$GPRMC,125007.000,A,4041.6006,N,07358.7744,W,0.74,91.24,050216,,,A*48,49.30,14.40,0.18

$GPRMC,125008.000,A,4041.6005,N,07358.7739,W,0.62,135.96,050216,,,A*7F,49.40,14.40,0.18

$GPRMC,125009.000,A,4041.6008,N,07358.7737,W,0.36,7.93,050216,,,A*79,49.40,14.40,0.17

$GPRMC,125010.000,A,4041.6007,N,07358.7739,W,0.60,17.86,050216,,,A*46,49.40,14.40,0.20

$GPRMC,125011.000,A,4041.6005,N,07358.7740,W,0.49,42.83,050216,,,A*45,49.40,14.40,0.19

$GPRMC,125012.000,A,4041.6003,N,07358.7737,W,0.73,79.44,050216,,,A*4A,49.40,14.40,0.18

$GPRMC,125013.000,A,4041.6002,N,07358.7737,W,0.37,119.90,050216,,,A*74,49.40,14.40,0.19

$GPRMC,125015.000,A,4041.6002,N,07358.7730,W,0.08,55.32,050216,,,A*48,49.30,14.40,0.19

$GPRMC,125016.000,A,4041.6003,N,07358.7726,W,0.55,40.58,050216,,,A*4D,49.70,14.40,0.19

$GPRMC,125017.000,A,4041.6004,N,07358.7724,W,0.68,76.20,050216,,,A*4D,49.70,14.40,0.18

$GPRMC,125018.000,A,4041.6007,N,07358.7720,W,0.58,42.75,050216,,b,49.10,14.40,0.18

$GPRMC,125019.000,A,4041.6005,N,07358.7717,W,0.48,136.64,050216,,,A*75,49.10,14.40,0.21

$GPRMC,125021.000,A,4041.6004,N,07358.7721,W,0.81,311.72,050216,,,A*7F,49.20,14.40,0.19

$GPRMC,125022.000,A,4041.6001,N,07358.7724,W,0.19,293.38,050216,,,A*78,50.20,14.40,0.21

$GPRMC,125023.000,A,4041.5995,N,07358.7730,W,0.47,207.17,050216,,,A*70,50.20,14.40,0.19

$GPRMC,125024.000,A,4041.5992,N,07358.7733,W,0.07,62.68,050216,,,A*4E,49.40,14.40,0.18

$GPRMC,125025.000,A,4041.5985,N,07358.7737,W,1.05,166.70,050216,,,A*72,49.40,14.40,0.18

$GPRMC,125026.000,A,4041.5977,N,07358.7740,W,0.45,156.20,050216,,,A*7F,49.40,14.40,0.21

$GPRMC,125027.000,A,4041.5968,N,07358.7740,W,0.63,88.27,050216,,,A*41,49.40,14.40,0.19

$GPRMC,125028.000,A,4041.5964,N,07358.7742,W,0.66,87.24,050216,,,A*49,49.40,14.40,0.21

$GPRMC,125029.000,A,4041.5962,N,07358.7746,W,0.12,276.96,050216,,,A*7C,49.40,14.40,0.18

$GPRMC,125030.000,A,4041.5957,N,07358.7752,W,0.28,227.50,050216,,,A*70,49.40,14.40,0.20

$GPRMC,125031.000,A,4041.5954,N,07358.7757,W,0.18,227.30,050216,,,A*72,49.40,14.40,0.19

$GPRMC,125032.000,A,4041.5951,N,07358.7761,W,0.18,191.91,050216,,,A*74,49.30,14.40,0.20

$GPRMC,125033.000,A,4041.5950,N,07358.7761,W,0.80,167.11,050216,,,A*74,49.30,14.40,0.19

$GPRMC,125034.000,A,4041.5944,N,07358.7765,W,1.70,170.96,050216,,,A*75,49.20,14.40,0.18

$GPRMC,125035.000,A,4041.5943,N,07358.7765,W,0.83,148.28,050216,,,A*70,49.20,14.40,0.17

$GPRMC,125036.000,A,4041.5944,N,07358.7769,W,0.09,37.10,050216,,,A*48,49.30,14.40,0.19

$GPRMC,125037.000,A,4041.5948,N,07358.7772,W,0.54,349.87,050216,,,A*73,49.30,14.40,0.18

$GPRMC,125038.000,A,4041.5950,N,07358.7776,W,0.25,0.17,050216,,,A*70,49.50,14.40,0.19

$GPRMC,125039.000,A,4041.5946,N,07358.7779,W,0.96,185.46,050216,,,A*79,49.50,14.40,0.18

$GPRMC,125040.000,A,4041.5948,N,07358.7781,W,0.37,53.62,050216,,,A*49,49.50,14.40,0.20

$GPRMC,125041.000,A,4041.5948,N,07358.7782,W,0.59,34.42,050216,,,A*40,49.50,14.40,0.17

$GPRMC,125042.000,A,4041.5946,N,07358.7784,W,0.45,298.48,050216,,,A*78,49.50,14.40,0.18

$GPRMC,125043.000,A,4041.5947,N,07358.7787,W,0.42,314.66,050216,,,A*75,49.50,14.40,0.20

$GPRMC,125044.000,A,4041.5950,N,07358.7786,W,0.52,39.07,050216,,,A*4F,49.30,14.40,0.18

$GPRMC,125045.000,A,4041.5953,N,07358.7786,W,0.13,224.82,050216,,,A*7B,49.30,14.40,0.18

$GPRMC,125046.000,A,4041.5953,N,07358.7786,W,0.82,158.71,050216,,,A*74,49.40,14.40,0.20

$GPRMC,125047.000,A,4041.5950,N,07358.7787,W,0.09,44.09,050216,,,A*47,49.40,14.40,0.20

$GPRMC,125048.000,A,4041.5951,N,07358.7788,W,0.28,166.95,050216,,,A*71,49.40,14.40,0.19

$GPRMC,125049.000,A,4041.5954,N,07358.7789,W,0.07,274.03,050216,,,A*76,49.40,14.40,0.17

$GPRMC,125050.000,A,4041.5954,N,07358.7790,W,0.95,191.05,050216,,,A*73,49.40,14.40,0.21

$GPRMC,125051.000,A,4041.5953,N,07358.7791,W,0.90,203.31,050216,,,A*7E,49.40,14.40,0.19

$GPRMC,125052.000,A,4041.5951,N,07358.7794,W,0.43,264.73,050216,,,A*73,49.30,14.40,0.17

$GPRMC,125053.000,A,4041.5951,N,07358.7797,W,0.71,249.33,050216,,,A*7B,49.30,14.40,0.18

$GPRMC,125054.000,A,4041.5943,N,07358.7797,W,0.53,200.53,050216,,,A*74,49.20,14.40,0.18

$GPRMC,125055.000,A,4041.5940,N,07358.7798,W,0.37,205.22,050216,,,A*78,49.20,14.40,0.19

$GPRMC,125056.000,A,4041.5933,N,07358.7800,W,0.04,279.49,050216,,,A*77,49.10,14.40,0.20

$GPRMC,125057.000,A,4041.5932,N,07358.7801,W,0.23,248.82,050216,,,A*76,49.10,14.40,0.20

$GPRMC,125058.000,A,4041.5931,N,07358.7802,W,0.21,44.23,050216,,,A*4E,49.20,14.40,0.18

$GPRMC,125059.000,A,4041.5932,N,07358.7801,W,0.30,79.95,050216,,,A*4C,49.20,14.40,0.20

$GPRMC,125100.000,A,4041.5932,N,07358.7800,W,0.09,283.22,050216,,,A*71,49.20,14.40,0.20

$GPRMC,125101.000,A,4041.5932,N,07358.7801,W,0.14,200.14,050216,,,A*73,49.20,14.40,0.21

$GPRMC,125102.000,A,4041.5931,N,07358.7801,W,0.46,166.83,050216,,,A*79,49.10,14.40,0.19

$GPRMC,125103.000,A,4041.5930,N,07358.7800,W,0.68,146.10,050216,,,A*7C,49.10,14.40,0.19

$GPRMC,125104.000,A,4041.5929,N,07358.7799,W,0.76,164.49,050216,,,A*7F,49.20,14.40,0.20

$GPRMC,125105.000,A,4041.5926,N,07358.7797,W,0.65,162.91,050216,,,A*7E,49.20,14.40,0.19

$GPRMC,125106.000,A,4041.5930,N,07358.7797,W,0.41,284.23,050216,,,A*7E,49.30,14.40,0.18

$GPRMC,125107.000,A,4041.5930,N,07358.7799,W,0.75,235.46,050216,,,A*7F,49.30,14.40,0.17

$GPRMC,125108.000,A,4041.5931,N,07358.7798,W,0.10,132.97,050216,,,A*7B,49.30,14.40,0.20

$GPRMC,125109.000,A,4041.5934,N,07358.7798,W,0.25,342.35,050216,,,A*74,49.30,14.40,0.17

$GPRMC,125110.000,A,4041.5936,N,07358.7797,W,0.45,44.43,050216,,,A*43,49.40,14.40,0.17

$GPRMC,125111.000,A,4041.5940,N,07358.7797,W,0.65,1.12,050216,,,A*74,49.40,14.40,0.17

$GPRMC,125112.000,A,4041.5941,N,07358.7796,W,0.37,170.74,050216,,,A*77,49.40,14.40,0.17

$GPRMC,125113.000,A,4041.5939,N,07358.7795,W,1.27,189.74,050216,,,A*7C,49.30,14.40,0.19

$GPRMC,125114.000,A,4041.5938,N,07358.7793,W,0.75,162.43,050216,,,A*7B,49.30,14.40,0.18

$GPRMC,125115.000,A,4041.5940,N,07358.7792,W,1.20,14.91,050216,,,A*4A,49.10,14.40,0.17

$GPRMC,125116.000,A,4041.5938,N,07358.7791,W,0.70,12.46,050216,,,A*4D,49.10,14.40,0.18

$GPRMC,125117.000,A,4041.5938,N,07358.7790,W,0.36,345.87,050216,,,A*73,49.20,14.40,0.19

$GPRMC,125118.000,A,4041.5941,N,07358.7788,W,0.17,64.92,050216,,,A*4C,49.20,14.40,0.19

$GPRMC,125119.000,A,4041.5940,N,07358.7789,W,0.85,206.46,050216,,,A*79,49.30,14.40,0.18

$GPRMC,125120.000,A,4041.5938,N,07358.7789,W,0.58,188.34,050216,,,A*7C,49.30,14.40,0.18

$GPRMC,125121.000,A,4041.5936,N,07358.7790,W,0.22,184.04,050216,,,A*79,49.40,14.40,0.18

$GPRMC,125122.000,A,4041.5939,N,07358.7789,W,1.00,13.87,050216,,,A*48,49.40,14.40,0.18

$GPRMC,125123.000,A,4041.5936,N,07358.7789,W,0.62,359.84,050216,,,A*7D,49.40,14.40,0.19

$GPRMC,125124.000,A,4041.5936,N,07358.7790,W,0.05,192.96,050216,,,A*75,49.40,14.40,0.18

$GPRMC,125125.000,A,4041.5941,N,07358.7791,W,0.43,329.92,050216,,,A*71,49.40,14.40,0.19

$GPRMC,125126.000,A,4041.5943,N,07358.7793,W,1.38,342.13,050216,,,A*7B,49.40,14.40,0.18

$GPRMC,125127.000,A,4041.5943,N,07358.7795,W,1.05,345.68,050216,,,A*79,49.30,14.40,0.18

$GPRMC,125128.000,A,4041.5947,N,07358.7796,W,0.92,345.14,050216,,,A*75,49.30,14.40,0.29

$GPRMC,125129.000,A,4041.5948,N,07358.7795,W,0.32,102.35,050216,,,A*70,49.40,14.40,0.22

$GPRMC,125130.000,A,4041.5948,N,07358.7795,W,0.19,235.42,050216,,,A*76,49.40,14.40,0.20

$GPRMC,125131.000,A,4041.5947,N,07358.7796,W,0.34,337.15,050216,,,A*75,49.40,14.40,0.19

$GPRMC,125132.000,A,4041.5948,N,07358.7794,W,0.72,35.60,050216,,,A*4A,49.40,14.40,0.19

$GPRMC,125133.000,A,4041.5946,N,07358.7793,W,0.30,357.67,050216,,,A*74,49.40,14.40,0.17

$GPRMC,125134.000,A,4041.5948,N,07358.7793,W,0.20,207.57,050216,,,A*7B,49.40,14.40,0.20

$GPRMC,125135.000,A,4041.5948,N,07358.7795,W,0.38,236.84,050216,,,A*79,49.40,14.40,0.18

$GPRMC,125136.000,A,4041.5952,N,07358.7796,W,0.14,149.42,050216,,,A*7D,49.40,14.40,0.17

$GPRMC,125137.000,A,4041.5952,N,07358.7795,W,0.76,347.09,050216,,,A*78,49.40,14.40,0.19

$GPRMC,125138.000,A,4041.5945,N,07358.7796,W,0.12,194.86,050216,,,A*7B,49.40,14.40,0.17

$GPRMC,125139.000,A,4041.5943,N,07358.7797,W,0.52,149.03,050216,,,A*74,49.40,14.40,0.17

$GPRMC,125140.000,A,4041.5943,N,07358.7798,W,0.74,4.97,050216,,,A*74,49.40,14.40,0.19

$GPRMC,125141.000,A,4041.5939,N,07358.7798,W,0.83,13.87,050216,,,A*47,49.30,14.40,0.19

$GPRMC,125142.000,A,4041.5935,N,07358.7799,W,0.98,177.56,050216,,,A*7C,49.30,14.40,0.18

$GPRMC,125143.000,A,4041.5932,N,07358.7801,W,1.12,201.93,050216,,,A*7C,49.30,14.40,0.18

$GPRMC,125144.000,A,4041.5928,N,07358.7801,W,0.37,87.33,050216,,,A*40,49.30,14.40,0.18

$GPRMC,125145.000,A,4041.5926,N,07358.7801,W,0.70,355.14,050216,,,A*75,49.40,14.40,0.18

$GPRMC,125146.000,A,4041.5922,N,07358.7803,W,0.84,322.16,050216,,,A*79,49.40,14.40,0.18

$GPRMC,125147.000,A,4041.5916,N,07358.7805,W,0.72,3.11,050216,,,A*77,49.40,14.40,0.20

$GPRMC,125148.000,A,4041.5919,N,07358.7803,W,0.41,34.56,050216,,,A*46,49.40,14.40,0.18

$GPRMC,125149.000,A,4041.5922,N,07358.7802,W,0.06,300.81,050216,,,A*73,49.40,14.40,0.18

$GPRMC,125150.000,A,4041.5923,N,07358.7802,W,0.20,167.91,050216,,,A*7C,49.40,14.40,0.18

$GPRMC,125151.000,A,4041.5927,N,07358.7801,W,0.18,251.14,050216,,,A*7A,49.20,14.40,0.18

$GPRMC,125152.000,A,4041.5926,N,07358.7802,W,0.28,263.97,050216,,,A*72,49.20,14.40,0.18

$GPRMC,125153.000,A,4041.5926,N,07358.7803,W,0.35,307.64,050216,,,A*71,49.20,14.40,0.17

$GPRMC,125154.000,A,4041.5927,N,07358.7804,W,0.19,276.70,050216,,,A*7C,49.20,14.40,0.19

$GPRMC,125155.000,A,4041.5927,N,07358.7805,W,0.33,175.43,050216,,,A*74,49.10,14.40,0.17

$GPRMC,125156.000,A,4041.5926,N,07358.7804,W,1.27,162.07,050216,,,A*75,49.10,14.40,0.17

$GPRMC,125157.000,A,4041.5926,N,07358.7803,W,0.53,157.76,050216,,,A*71,49.20,14.40,0.18

$GPRMC,125158.000,A,4041.5927,N,07358.7804,W,0.38,277.04,050216,,,A*71,49.20,14.40,0.16

$GPRMC,125159.000,A,4041.5926,N,07358.7803,W,0.50,41.65,050216,,,A*48,49.30,14.40,0.18

$GPRMC,125200.000,A,4041.5925,N,07358.7802,W,0.38,139.42,050216,,,A*70,49.30,14.40,0.18

$GPRMC,125201.000,A,4041.5924,N,07358.7801,W,0.94,175.65,050216,,,A*78,49.30,14.40,0.20

$GPRMC,125202.000,A,4041.5919,N,07358.7802,W,0.18,199.54,050216,,,A*72,49.30,14.40,0.18

$GPRMC,125203.000,A,4041.5913,N,07358.7803,W,0.23,51.16,050216,,,A*43,49.20,14.40,0.18

$GPRMC,125204.000,A,4041.5906,N,07358.7804,W,0.41,223.89,050216,,,A*72,49.20,14.40,0.16

$GPRMC,125205.000,A,4041.5902,N,07358.7808,W,0.54,226.73,050216,,,A*7F,49.20,14.40,0.19

$GPRMC,125206.000,A,4041.5901,N,07358.7809,W,0.56,340.59,050216,,,A*75,49.20,14.40,0.18

$GPRMC,125207.000,A,4041.5903,N,07358.7810,W,0.68,336.99,050216,,,A*7E,49.20,14.40,0.19

$GPRMC,125208.000,A,4041.5901,N,07358.7811,W,1.10,359.23,050216,,,A*74,49.20,14.40,0.17

$GPRMC,125209.000,A,4041.5889,N,07358.7812,W,0.55,144.26,050216,,,A*7C,49.10,14.40,0.19

$GPRMC,125210.000,A,4041.5881,N,07358.7814,W,0.61,176.45,050216,,,A*79,49.10,14.40,0.20

$GPRMC,125211.000,A,4041.5871,N,07358.7816,W,1.14,189.76,050216,,,A*76,49.20,14.40,0.19

$GPRMC,125212.000,A,4041.5860,N,07358.7817,W,2.00,174.25,050216,,,A*76,49.20,14.40,0.19

$GPRMC,125213.000,A,4041.5853,N,07358.7819,W,1.15,200.46,050216,,,A*7B,49.30,14.40,0.20

$GPRMC,125214.000,A,4041.5858,N,07358.7820,W,0.39,264.92,050216,,,A*79,49.30,14.40,0.18

$GPRMC,125215.000,A,4041.5862,N,07358.7821,W,1.13,338.51,050216,,,A*7E,49.30,14.40,0.19

$GPRMC,125216.000,A,4041.5866,N,07358.7821,W,0.89,357.15,050216,,,A*72,49.30,14.40,0.20

$GPRMC,125217.000,A,4041.5871,N,07358.7821,W,0.52,5.94,050216,,,A*7E,49.40,14.40,0.17

$GPRMC,125218.000,A,4041.5871,N,07358.7821,W,0.80,169.06,050216,,,A*7E,49.40,14.40,0.16

$GPRMC,125219.000,A,4041.5873,N,07358.7821,W,0.46,320.20,050216,,,A*7C,49.10,14.40,0.18

$GPRMC,125220.000,A,4041.5873,N,07358.7821,W,0.50,337.72,050216,,,A*70,49.10,14.40,0.19

$GPRMC,125221.000,A,4041.5874,N,07358.7821,W,0.74,2.64,050216,,,A*72,49.10,14.50,0.18

$GPRMC,125222.000,A,4041.5877,N,07358.7821,W,0.88,337.23,050216,,,A*77,49.10,14.50,0.20

$GPRMC,125223.000,A,4041.5882,N,07358.7821,W,0.85,342.57,050216,,,A*70,49.10,14.40,0.19

$GPRMC,125224.000,A,4041.5879,N,07358.7822,W,0.33,292.08,050216,,,A*7B,49.10,14.40,0.18

$GPRMC,125225.000,A,4041.5883,N,07358.7822,W,0.26,337.20,050216,,,A*7F,49.40,14.50,0.19

$GPRMC,125226.000,A,4041.5885,N,07358.7823,W,0.54,302.42,050216,,,A*7C,49.40,14.50,0.20

$GPRMC,125227.000,A,4041.5886,N,07358.7823,W,0.14,185.50,050216,,,A*74,49.50,14.50,0.19

$GPRMC,125228.000,A,4041.5886,N,07358.7823,W,0.43,173.83,050216,,,A*7E,49.50,14.50,0.17

$GPRMC,125229.000,A,4041.5884,N,07358.7822,W,0.30,13.75,050216,,,A*46,49.40,14.40,0.18

$GPRMC,125230.000,A,4041.5885,N,07358.7822,W,0.08,77.86,050216,,,A*4A,49.40,14.40,0.20

$GPRMC,125231.000,A,4041.5885,N,07358.7822,W,0.67,193.72,050216,,,A*72,49.20,14.40,0.19

$GPRMC,125232.000,A,4041.5888,N,07358.7820,W,0.60,21.54,050216,,,A*45,49.20,14.40,0.19

$GPRMC,125233.000,A,4041.5892,N,07358.7818,W,1.47,2.97,050216,,,A*7E,49.10,14.40,0.20

$GPRMC,125234.000,A,4041.5888,N,07358.7818,W,0.99,344.73,050216,,,A*7B,49.10,14.40,0.19

$GPRMC,125235.000,A,4041.5887,N,07358.7818,W,0.72,351.43,050216,,,A*77,49.10,14.40,0.21

$GPRMC,125236.000,A,4041.5880,N,07358.7819,W,0.27,317.04,050216,,,A*73,49.10,14.40,0.18

$GPRMC,125237.000,A,4041.5875,N,07358.7818,W,0.39,145.19,050216,,,A*7F,49.10,14.40,0.17

$GPRMC,125238.000,A,4041.5868,N,07358.7817,W,0.84,174.77,050216,,,A*7F,49.10,14.40,0.18

$GPRMC,125239.000,A,4041.5861,N,07358.7817,W,1.19,177.22,050216,,,A*71,49.30,14.40,0.19

$GPRMC,125240.000,A,4041.5858,N,07358.7817,W,0.38,218.23,050216,,,A*7C,49.30,14.40,0.19

$GPRMC,125242.000,A,4041.5855,N,07358.7816,W,0.81,347.40,050216,,,A*7E,49.30,14.40,0.20

$GPRMC,125244.000,A,4041.5857,N,07358.7817,W,0.28,338.11,050216,,,A*74,49.10,14.50,0.19

$GPRMC,125245.000,A,4041.5856,N,07358.7816,W,0.91,7.57,050216,,,A*7A,48.90,14.50,0.21

$GPRMC,125246.000,A,4041.5856,N,07358.7815,W,0.62,8.32,050216,,,A*7A,48.90,14.50,0.20

$GPRMC,125247.000,A,4041.5862,N,07358.7814,W,0.64,357.45,050216,,,A*72,48.90,14.40,0.19

$GPRMC,125248.000,A,4041.5867,N,07358.7812,W,0.18,33.51,050216,,,A*41,48.90,14.40,0.18

$GPRMC,125249.000,A,4041.5870,N,07358.7812,W,0.67,189.86,050216,,,A*74,48.90,14.40,0.19

$GPRMC,125250.000,A,4041.5876,N,07358.7811,W,0.46,10.30,050216,,,A*46,48.90,14.40,0.20

$GPRMC,125251.000,A,4041.5879,N,07358.7811,W,0.79,5.17,050216,,,A*75,49.00,14.40,0.18

$GPRMC,125252.000,A,4041.5889,N,07358.7811,W,0.49,325.22,050216,,,A*7D,49.00,14.40,0.18

$GPRMC,125253.000,A,4041.5893,N,07358.7812,W,0.91,347.86,050216,,,A*7B,49.20,14.50,0.20

$GPRMC,125254.000,A,4041.5899,N,07358.7811,W,0.88,27.32,050216,,,A*47,49.20,14.50,0.19

$GPRMC,125255.000,A,4041.5910,N,07358.7811,W,1.37,344.57,050216,,,A*76,49.10,14.40,0.19

$GPRMC,125256.000,A,4041.5917,N,07358.7811,W,1.53,342.97,050216,,,A*7A,49.10,14.40,0.18

$GPRMC,125257.000,A,4041.5921,N,07358.7811,W,1.14,16.28,050216,,,A*4B,49.30,14.40,0.20

$GPRMC,125258.000,A,4041.5926,N,07358.7810,W,1.17,353.27,050216,,,A*7C,49.30,14.40,0.20

$GPRMC,125259.000,A,4041.5927,N,07358.7811,W,0.56,353.18,050216,,,A*75,48.90,14.40,0.18

$GPRMC,125300.000,A,4041.5927,N,07358.7812,W,0.29,306.80,050216,,,A*72,48.90,14.40,0.20

$GPRMC,125301.000,A,4041.5926,N,07358.7812,W,0.29,161.05,050216,,,A*7C,48.80,14.40,0.18

$GPRMC,125302.000,A,4041.5924,N,07358.7814,W,0.51,200.88,050216,,,A*75,48.80,14.40,0.19

$GPRMC,125303.000,A,4041.5923,N,07358.7814,W,0.70,219.81,050216,,,A*71,49.10,14.50,0.21

$GPRMC,125304.000,A,4041.5921,N,07358.7817,W,0.14,252.54,050216,,,A*72,49.10,14.50,0.19

$GPRMC,125305.000,A,4041.5924,N,07358.7819,W,0.39,270.01,050216,,,A*77,49.10,14.40,0.19

$GPRMC,125306.000,A,4041.5929,N,07358.7820,W,0.43,316.48,050216,,,A*72,49.10,14.40,0.18

$GPRMC,125307.000,A,4041.5928,N,07358.7821,W,0.48,116.08,050216,,,A*7E,49.20,14.40,0.22

$GPRMC,125308.000,A,4041.5928,N,07358.7819,W,1.14,194.71,050216,,,A*76,49.20,14.40,0.19

$GPRMC,125309.000,A,4041.5924,N,07358.7822,W,0.76,278.05,050216,,,A*74,49.10,14.40,0.19

$GPRMC,125310.000,A,4041.5923,N,07358.7824,W,0.88,330.52,050216,,,A*73,49.10,14.40,0.18

$GPRMC,125311.000,A,4041.5920,N,07358.7826,W,0.55,345.84,050216,,,A*7A,49.10,14.50,0.18

$GPRMC,125312.000,A,4041.5917,N,07358.7826,W,0.17,109.05,050216,,,A*78,49.10,14.50,0.19

$GPRMC,125313.000,A,4041.5922,N,07358.7824,W,0.62,147.47,050216,,,A*73,49.20,14.50,0.20

$GPRMC,125314.000,A,4041.5923,N,07358.7824,W,0.40,245.00,050216,,,A*77,49.20,14.50,0.19

$GPRMC,125315.000,A,4041.5920,N,07358.7826,W,0.60,266.41,050216,,,A*71,49.30,14.50,0.19

$GPRMC,125316.000,A,4041.5923,N,07358.7825,W,0.99,19.01,050216,,,A*4A,49.30,14.50,0.17

$GPRMC,125317.000,A,4041.5926,N,07358.7825,W,0.26,351.03,050216,,,A*77,49.40,14.50,0.21

$GPRMC,125318.000,A,4041.5930,N,07358.7826,W,0.43,289.86,050216,,,A*76,49.40,14.50,0.20

$GPRMC,125319.000,A,4041.5928,N,07358.7824,W,0.68,40.46,050216,,,A*4E,49.40,14.50,0.18

$GPRMC,125320.000,A,4041.5936,N,07358.7822,W,1.28,3.62,050216,,,A*79,49.30,14.40,0.21

